stop_id,stop_code,stop_name,stop_lat,stop_lon
1,100,Seneca @ Commons,42.4405020,-76.4965060
2,165,Green @ Commons,42.4386180,-76.4976580
3,1533,Statler Hall,42.4456100,-76.4826050
4,1534,Sage Hall,42.4453510,-76.4826890
5,1541,Uris Hall,42.4475250,-76.4820790
6,1540,Uris Hall Across Street,42.4475900,-76.4823990
7,1542,Kennedy Hall,42.4476240,-76.4794390
8,1543,Corson/mudd Hall,42.4475400,-76.4793240
9,1544,Bradfield Hall,42.4475940,-76.4758220
10,1545,Bradfield Hall Across Street,42.4475330,-76.4755780
11,1547,Dairy Bar,42.4475100,-76.4711990
12,1546,Dairy Bar Across Street,42.4475750,-76.4713590
13,1553,Boyce Thompson Institute,42.4474910,-76.4676360
14,1555,Vet School,42.4473110,-76.4668050
15,1701,State @ Stewart,42.4392470,-76.4904630
16,1702,State @ Stewart,42.4393390,-76.4904330
17,1703,State @ Quarry,42.4386790,-76.4886320
18,1704,State @ Quarry,42.4386670,-76.4884190
19,1721,Stewart @ Seneca,42.4405900,-76.4897230
21,1725,Stewart @ Williams,42.4426190,-76.4897690
22,1726,Stewart @ Williams,42.4425430,-76.4899060
23,1768,Pine Tree @ East Hill Plaza,42.4376070,-76.4652480
24,1767,Pine Tree @ East Hill Plaza,42.4375760,-76.4650800
25,5531,Pine Tree @ Honness,42.4295730,-76.4624180
26,5720,Pine Tree @ Rt 79,42.4225770,-76.4615400
27,5719,Pine Tree @ Rt 79,42.4223330,-76.4614410
28,5730,Rt 79 @ German Cross,42.4054180,-76.4296260
29,5729,Rt 79 @ German Cross,42.4053120,-76.4292450
30,5716,Rt 79 @ Lois Ln (commonland),42.4241830,-76.4641950
31,5734,Rt 79 @ Brooktondale,42.4026110,-76.4239270
32,5733,Rt 79 @ Brooktondale,42.4025540,-76.4235610
33,5736,Brooktondale @ Rt 79,42.4024580,-76.4237370
34,5530,Honness @ Pine Tree,42.4297140,-76.4629290
35,5712,Rt 79 Across From Tower View,42.4262050,-76.4673390
36,2671,Aubles Trailer Park,42.5472370,-76.6781310
37,2669,Rt 96 @ W Seneca,42.5472600,-76.6728820
38,2670,W Seneca @ Route 96,42.5473520,-76.6732100
39,2631,Trumansburg Park-N-Ride,42.5419540,-76.6666720
40,2627,Trumansburg-W Main @ Washington,42.5421100,-76.6630250
41,2628,Trumansburg-W Main @ Washington,42.5420720,-76.6627880
42,2623,E Main @ South (route 96 @ South St),42.5410880,-76.6587300
43,2624,E Main @ South (route 96 @ South St),42.5409510,-76.6585540
44,2619,Trumansburg Central School,42.5392950,-76.6530460
45,2620,Trumansburg Central School,42.5392680,-76.6532060
46,2611,Trumansburg Shur-Save,42.5340920,-76.6425250
47,2612,Rt. 96 @ Kinney Drugs,42.5340160,-76.6425860
48,2583,Jacksonville Post Office,42.5077590,-76.6138310
49,2584,Jacksonville Post Office,42.5077130,-76.6139220
50,2581,Rt 96 @ Colegrove,42.5050470,-76.6101460
51,2582,Rt 96 @ Colegrove,42.5050810,-76.6103670
52,2573,Rt 96 @ Krums Corner,42.4860950,-76.5732500
53,2574,Rt 96 @ Krums Corner,42.4861180,-76.5735700
54,3325,Rt 34 @ E Lansing,42.5674780,-76.4928970
55,3171,Rt 34b @ Beckwith,42.5604250,-76.5557710
56,3172,Rt 34b @ Beckwith,42.5603940,-76.5560150
57,4569,Etna Mills Apts - Rt 366,42.4853320,-76.3836290
58,4570,Rte 366 @ Etna Ln,42.4853170,-76.3837590
59,1331,Cradit Farm @ Pleasant Grove,42.4552990,-76.4737240
60,1349,Hasbrouck Apts,42.4563410,-76.4716420
61,3111,E Shore Dr @ Burdick Hill,42.4977800,-76.5097200
62,3112,E Shore Dr @ Burdick Hill,42.4979590,-76.5098570
63,3115,East Shore @ Waterwagon,42.5155680,-76.5083160
64,3116,E Shore Dr @ Waterwagon,42.5157170,-76.5084300
65,3119,E Shore Dr @ Asbury,42.5249670,-76.5000920
66,3120,E Shore Dr @ Asbury,42.5251200,-76.5002900
67,3129,E Shore Dr @ Cayuga Vista,42.5328830,-76.5027850
68,3130,E Shore @ Cayuga Vista,42.5328480,-76.5029910
69,3142,Rte 34b @ Conlon,42.5380100,-76.5075840
70,3141,Rte 34b @ Conlon,42.5379640,-76.5078200
71,3150,Rte 34b @ Brickyard,42.5434300,-76.5248260
72,3149,Rte 34b @ Brickyard,42.5433770,-76.5251620
74,3156,Rte 34b @ Myers Point,42.5422820,-76.5373540
75,3721,Warren Rd @ Christopher,42.4720120,-76.4644850
76,3722,Warren Rd @ Christopher,42.4720690,-76.4645920
77,3735,Guthrie Orthopedic,42.4805070,-76.4640200
78,3909,Salem @ Maplewood Dr,42.4693340,-76.4587100
79,1367,Triphammer @ Iroquois,42.4628520,-76.4833830
80,1368,Triphammer @ Iroquois Pl,42.4631160,-76.4835970
81,1322,Wait @ Thurston,42.4531820,-76.4810100
82,1308,Thurston @ Highland,42.4538310,-76.4868160
83,1309,Thurston @ Highland,42.4536320,-76.4863590
84,1506,Stewart @ University,42.4493900,-76.4904020
85,1508,University @ Stewart,42.4493060,-76.4902270
86,1399,Forest Home @ Bridge,42.4529610,-76.4710390
87,1398,Forest Home @ Bridge,42.4533650,-76.4702300
88,3741,Warren Rd @ Dart Dr,42.4833560,-76.4672470
89,3740,Warren Rd @ Dart Dr,42.4834590,-76.4674300
90,3784,Culligan @ Brown,42.4877850,-76.4625020
91,3781,Thornwood @ Brown,42.4872550,-76.4649200
92,914,Lincoln @ Cayuga,42.4520110,-76.4995650
93,4375,Groton Town Hall,42.5899510,-76.3691180
94,4365,Groton Express Mart,42.5875360,-76.3668520
95,4361,Groton @ Railroad,42.5863380,-76.3660430
96,4362,Groton @ Railroad,42.5864830,-76.3662410
97,4359,South @ Main,42.5849300,-76.3657610
98,4360,Main @ South,42.5850870,-76.3657300
99,4355,Rt 38 @ Hamilton North,42.5833970,-76.3684230
100,4356,Rt 38 @ Hamilton North,42.5834270,-76.3685680
101,4351,Groton High School,42.5806240,-76.3690490
102,4352,Groton High School,42.5806430,-76.3692020
103,4335,Rte 38 @ Rte 34b,42.5480800,-76.3615190
104,4336,Rte 38 @ Rte 34b,42.5483930,-76.3617710
105,3782,Brown @ Thornwood,42.4873010,-76.4651410
106,911,Cayuga @ Lincoln,42.4518780,-76.4996570
107,1769,Ciser (across Street),42.4385300,-76.4652020
108,1770,Ciser Shelter,42.4386290,-76.4652020
109,1710,College @ Mitchell,42.4377710,-76.4851300
110,1711,College @ Mitchell,42.4378320,-76.4850230
111,738,Conifer Village,42.4511220,-76.5322270
112,3733,Convenient Care,42.4798580,-76.4651720
113,105,Court @ Linn,42.4431150,-76.4945070
114,3137,Lansing Town Hall,42.5379100,-76.5024030
115,3182,Lansing Fire Co. #3,42.5869870,-76.5898360
116,3790,Langmuir Lab,42.4853900,-76.4574430
117,1129,Lake St @ Boynton Middle School,42.4608540,-76.4972990
118,1130,Lake St @ Boynton Middle School,42.4608270,-76.4973680
119,545,South Meadow Marketplace,42.4304280,-76.5098800
120,1342,Jessup Tennis Courts,42.4569780,-76.4784160
121,1356,Jessup @ Triphammer,42.4564060,-76.4810100
122,4515,Dryden @ Mt. Pleasant,42.4558180,-76.4363020
123,4516,Dryden @ Freese,42.4559520,-76.4362560
124,1752,Dryden @ Humphreys Crosswalk,42.4423600,-76.4766620
125,1751,Dryden @ Humphreys Crosswalk,42.4422450,-76.4766540
126,4505,Dryden @ Game Farm,42.4508320,-76.4495850
127,4506,Dryden @ Game Farm,42.4510000,-76.4494090
128,737,Linderman Creek Apts.,42.4496880,-76.5308150
129,1757,Ithaca East Apts @ Maple,42.4412990,-76.4720000
130,1758,Ithaca East Apts @ Maple,42.4413570,-76.4718700
131,1753,Fairview/ Maplewood Park,42.4411350,-76.4763110
132,1754,Maplewood Park Apts,42.4412840,-76.4749760
133,1521,Milstein Hall,42.4513550,-76.4836880
134,1520,Milstein Hall Across Street,42.4513850,-76.4836880
135,3904,Muriel @ Hanshaw,42.4673080,-76.4616780
136,3333,N. Lansing Fire Co. #4,42.6121640,-76.4970630
137,1378,Northway @ The Parkway,42.4653930,-76.4866710
138,1377,The Parkway @ Northway,42.4651450,-76.4867100
139,1371,Northway @ Triphammer,42.4663200,-76.4843600
140,3745,Northwoods Apts,42.4863360,-76.4704360
141,4552,Pinckney @ Lower Creek,42.4771160,-76.4062960
142,2334,Enfield Center - Park And Ride,42.4382210,-76.6308820
143,2326,Sandy Creek Mobile Home Park,42.4511490,-76.6260220
144,2324,Rte 79 @ Applegate,42.4516030,-76.6111760
145,2323,Rte 79 @ Applegate,42.4515230,-76.6115490
146,2320,Rte 79 @ Van Dorn,42.4520990,-76.5909650
147,2319,Rte 79 @ Van Dorn,42.4520530,-76.5914230
148,2316,Rte 79 @ Sheffield,42.4473760,-76.5710600
149,2315,Rte 79 @ Sheffield,42.4473610,-76.5713880
150,1513,Baker Flagpole,42.4478000,-76.4877010
151,1512,Baker Flagpole,42.4475330,-76.4877090
152,1330,Appel Commons,42.4532550,-76.4773180
153,1329,Helen Newman Hall,42.4532200,-76.4772640
154,1345,Jessup @ Pleasant Grove,42.4567340,-76.4745640
155,1346,Jessup @ Pleasant Grove,42.4568180,-76.4746480
156,1343,Jessup @ Robert Purcell Community Center,42.4566350,-76.4769360
157,1344,Jessup @ Robert Purcell Community Center,42.4567410,-76.4771350
158,1125,Lake St @ Ithaca High School,42.4551810,-76.4960020
159,1126,Lake St @ Ithaca High School,42.4551620,-76.4960940
160,1124,Lake @ Falls,42.4529910,-76.4947200
161,1123,Falls @ Lake,42.4528580,-76.4948430
162,3555,Gaslight Village Apts,42.4812850,-76.4749150
163,3556,Gaslight Village Apts,42.4813390,-76.4749220
164,110,Geneva @ State,42.4395830,-76.5008010
165,3547,Cinema @ Sheraton,42.4786070,-76.4782940
166,3548,Cinema @ Sheraton,42.4786530,-76.4783940
167,4539,Rt 366 @ Rt 13,42.4764860,-76.3872910
168,3921,Rose Hill @ Muriel,42.4739380,-76.4618380
169,1525,Rockefeller Hall,42.4496000,-76.4827880
170,1524,Goldwin Smith Hall,42.4498410,-76.4829410
171,3726,Dewitt Middle School,42.4748880,-76.4661030
172,3725,Warren @ Boces,42.4747920,-76.4658510
173,1339,Rpcc @ Jameson,42.4562640,-76.4782560
174,1326,Risley Hall,42.4528580,-76.4811250
175,1325,Balch Hall @ Thurston,42.4529570,-76.4809950
176,1328,Balch Hall @ Cradit Farm,42.4528660,-76.4793700
177,1511,Boldt Hall,42.4492380,-76.4886930
178,672,Seneca @ Fulton,42.4400790,-76.5104450
179,3593,Tops Supermarket (lansing),42.4824220,-76.4863970
180,3711,Pleasant Grove @ Hanshaw,42.4676550,-76.4778210
181,3712,Pleasant Grove @ Hanshaw,42.4673190,-76.4778980
182,3905,Hanshaw @ Salem,42.4672620,-76.4588170
183,3903,Hanshaw @ Muriel,42.4671820,-76.4617230
184,3715,Hanshaw @ Blackstone,42.4669270,-76.4707870
185,3716,Hanshaw @ Blackstone,42.4670300,-76.4705120
186,953,Hancock @ First,42.4472850,-76.5030900
187,954,Hancock @ First,42.4474140,-76.5029680
188,135,Green @ Fayette,42.4384610,-76.5028150
189,4561,Etna @ Pinckney,42.4871670,-76.4097210
190,5526,Pine Tree @ Equestrian Center,42.4340440,-76.4632640
191,5525,Pine Tree @ Equestrian Center,42.4340360,-76.4630660
192,5552,Skyvue @ Snyder Hill,42.4230420,-76.4484020
193,1774,East Hill Plaza,42.4376180,-76.4627760
194,1771,East Hill Office Building,42.4388770,-76.4628600
195,1772,East Hill Office Building (across Street,42.4385800,-76.4635160
196,4521,Dryden @ Turkey Hill,42.4602510,-76.4275360
197,4522,Dryden @ Turkey Hill,42.4604260,-76.4272460
198,679,State @ Inlet Island,42.4405170,-76.5140150
199,115,State @ Albany,42.4394000,-76.5018690
200,704,Chestnut @ Sunrise,42.4434470,-76.5178150
201,730,Warren Pl @ Hector,42.4482380,-76.5261080
202,668,Ithaca Bus Station,42.4392430,-76.5110240
203,665,State @ Fulton (maxie's),42.4391560,-76.5098880
204,703,Sunrise @ Hector,42.4436570,-76.5167080
205,706,Chestnut Hill Apts,42.4417110,-76.5180820
206,705,Chestnut Hill Apts,42.4417080,-76.5180360
207,710,Chestnut @ Hook,42.4389110,-76.5191190
208,709,Chestnut @ Elm - Lacs,42.4386480,-76.5191270
210,713,Elm @ West Village,42.4365920,-76.5224000
211,725,Warren Pl @ Sunrise,42.4438020,-76.5244290
212,726,Warren Pl @ Sunrise,42.4439470,-76.5245210
213,2547,Museum Of The Earth,42.4672050,-76.5369950
214,664,State @ Meadow,42.4392970,-76.5080800
215,661,Green @ Meadow,42.4383090,-76.5084990
216,663,State @ Meadow (cornell Laundry),42.4392170,-76.5079420
217,112,Albany @ Salvation Army,42.4398800,-76.5017780
218,113,Seneca @ Albany,42.4403650,-76.5015640
219,729,Warren Pl @ Hector,42.4487110,-76.5263600
220,731,Hector @ Warren,42.4486730,-76.5266270
221,718,Haller @ Elm,42.4363520,-76.5260620
222,717,Haller @ Elm,42.4364660,-76.5260090
223,669,State @ Taughannock,42.4395790,-76.5125120
224,721,Warren Pl @ Hook,42.4396780,-76.5238650
225,722,Warren Pl @ Hook,42.4396020,-76.5239260
226,2563,Rt 96 @ Woolf,42.4774740,-76.5575030
227,2567,Rt 96 @ Iradell,42.4800340,-76.5608370
228,2568,Rt 96 @ Iradell,42.4801860,-76.5611950
229,2514,Rt 96 @ Bundy,42.4605750,-76.5297700
230,2511,Rt 96 @ Candlewyck,42.4599690,-76.5285950
231,2546,Cayuga Medical Center,42.4682660,-76.5370640
232,2553,Rte 96 @ Cayuga Medical Center,42.4667510,-76.5397950
233,2533,Rte 96 @ Cayuga Ridge,42.4624750,-76.5327300
234,2534,Rte 96 @ Cayuga Ridge,42.4624290,-76.5328520
235,785,Rte 96 @ Hopkins,42.4569470,-76.5242770
236,786,Rt 96 @ Hopkins,42.4568940,-76.5243840
237,2559,Rt 96 @ Dubois,42.4713750,-76.5470500
238,2560,Rte 96 @ Dubois,42.4714320,-76.5474170
239,2557,Professional Building,42.4680060,-76.5412520
240,767,Campbell @ Hector,42.4525600,-76.5233380
241,768,Campbell @ Hector,42.4525220,-76.5234070
242,773,Campbell @ Hopkins,42.4565510,-76.5245670
243,103,Tioga @ Court,42.4425740,-76.4968950
244,4538,Rte 13 @ Rte 366,42.4761810,-76.3872830
245,4540,Rte 13 @ Rte 366,42.4764670,-76.3869170
246,3179,Rte 34b @ Emmons,42.5789830,-76.5825730
247,3180,Rte 34b @ Lansing Station,42.5792810,-76.5830990
248,3167,Rte 34b @ Lakeview,42.5567360,-76.5479280
249,3168,Rte 34b @ Lakeview,42.5567860,-76.5482790
250,3175,Rte 34b @ Ross,42.5687680,-76.5738680
251,3176,Rte 34b @ Ross,42.5688930,-76.5741500
252,1347,Pleasant Grove @ Jessup,42.4567410,-76.4740300
253,1348,Pleasant Grove @ Jessup,42.4569240,-76.4743190
254,4717,Dryden Village @ Post Office,42.4904520,-76.2993930
255,4718,Main @ Library - Mirabito,42.4905510,-76.2994080
256,4723,South @ George,42.4893490,-76.2976000
257,4724,South @ George,42.4893460,-76.2977140
258,4727,South @ Ferguson,42.4833410,-76.2973330
259,4733,Rt 38 @ Keith,42.4687730,-76.2913280
260,4737,Lake Rd @ Kimberly Dr,42.4803960,-76.2905960
261,4755,Rt 13 @ Brightday,42.5007100,-76.2981720
262,4756,Rt 13 @ Brightday,42.5008160,-76.2983020
263,4783,Tc3,42.5027850,-76.2882770
264,4787,Tc3 Dorms,42.4992900,-76.2858050
265,4713,W Main @ Hilton,42.4900970,-76.3115390
266,4714,W Main @ Hilton,42.4901890,-76.3113020
267,4707,Rt 13 @ Yellowbarn,42.4869920,-76.3430860
268,4708,Rt 13 @ Johnson,42.4870990,-76.3431090
269,4543,Rt 13 @ Mineah,42.4806370,-76.3738710
270,4544,Rt 13 @ Kirk,42.4808350,-76.3734440
271,4321,Freeville Village,42.5119710,-76.3504490
272,4322,Freeville Park-N-Ride,42.5120160,-76.3505330
273,4325,Rte 366 @ Rte 38,42.5138400,-76.3468090
274,4326,Rte 38 @ Rte 366,42.5139810,-76.3468930
275,4328,Rt 38 @ Rt. 366,42.5138740,-76.3464740
276,4311,Rte 38 @ William George Academy,42.5058630,-76.3349530
277,4312,Rte 38 @ William George Academy,42.5059010,-76.3352200
278,5737,Rte 79 @ Bessemer Hill,42.3961600,-76.4087140
279,5738,Rte 79 @ Bessemer Hill,42.3960910,-76.4090500
280,5536,Honness @ Ithaca Recreation Way,42.4296040,-76.4670560
281,5710,Honness @ Rte 79,42.4294170,-76.4719390
282,1315,Highland @ Wyckoff,42.4563940,-76.4859850
283,1314,Highland @ Wyckoff,42.4563180,-76.4861150
284,747,413 Hector,42.4460950,-76.5170210
285,748,413 Hector,42.4460870,-76.5171510
286,3785,Airport,42.4905200,-76.4639740
287,939,Aldi,42.4492380,-76.5065610
288,1351,A-Lot (upper Stop),42.4581110,-76.4754030
289,1353,A-Lot (lower Stop),42.4580270,-76.4772800
290,1530,Anabel Taylor Hall,42.4447900,-76.4851380
291,1531,Carpenter Hall,42.4448890,-76.4849930
292,903,Cascadilla @ Cayuga,42.4445530,-76.4994660
293,901,Cayuga @ Cascadilla,42.4444960,-76.4992070
294,107,Cayuga @ Buffalo,42.4412270,-76.4990460
295,108,Cayuga @ Buffalo,42.4414020,-76.4991760
296,4527,Dryden @ Baker Hill,42.4673500,-76.4108810
297,4528,Dryden @ Baker Hil,42.4674110,-76.4109570
298,4509,Dryden @ Forest Home,42.4530870,-76.4443360
299,4510,Dryden @ Forest Home,42.4531560,-76.4443970
300,5561,Eastern Hts. @ Joanne,42.4249920,-76.4564820
301,5559,Eastern Hts. @ Sharlene,42.4232980,-76.4526210
302,572,Rt 13 @ Buttermilk Falls,42.4177700,-76.5233990
303,571,Rt 13 @ Buttermilk Falls,42.4175870,-76.5234600
304,6712,Rte 13 @ Five Mile,42.4137540,-76.5332950
305,6711,Rte 13 @ Five Mile,42.4135320,-76.5334240
306,6718,Rte 13 @ Enfield Falls,42.4043050,-76.5462720
307,6717,Rte 13 @ Enfield Falls,42.4039540,-76.5460740
308,6742,Rte 13 @ Burdge Hill,42.3665240,-76.5862960
309,6789,Newfield-Rt 13 @ Main,42.3528480,-76.6085820
311,6775,Newfield-Town Hall,42.3625030,-76.5895770
312,6532,Newfield Depot @ Valley Manor,42.3688010,-76.5571820
313,6524,Newfield Depot @ W. Danby,42.3686030,-76.5522920
314,6519,Rte 34 @ Shelter Valley,42.3739470,-76.5515370
315,6511,Rte 34 @ Decker,42.3876530,-76.5538640
316,6767,Newfield Depot @ Mill,42.3638460,-76.5857390
317,6515,Rte 34 @ Melody Ln,42.3818590,-76.5535960
318,3511,Triphammer @ Hanshaw,42.4696920,-76.4803240
319,3579,Triphammer @ Cayuga Mall,42.4836730,-76.4855350
320,1358,Triphammer @ Dearborn,42.4563750,-76.4813690
321,905,Tompkins @ Cayuga,42.4483260,-76.4996410
322,906,Cayuga @ Tompkins,42.4484560,-76.4995500
323,925,Tioga @ Falls,42.4527320,-76.4975360
324,926,Falls @ Tioga,42.4528080,-76.4974980
325,1301,Thurston @ Stewart,42.4546510,-76.4903870
326,1310,Highland @ Thurston,42.4538460,-76.4865040
327,1307,Thurston @ Barton,42.4537580,-76.4881670
328,1306,Thurston @ Barton,42.4537850,-76.4879910
329,3794,Thornwood @ Bin Optics,42.4840160,-76.4636380
330,930,Third @ Hancock,42.4464760,-76.5052260
331,929,Third @ Hancock,42.4463650,-76.5050350
332,932,Hancock @ Third,42.4464910,-76.5050050
333,927,Cascadilla @ Third,42.4444890,-76.5035320
334,928,Third @ Cascadilla,42.4445530,-76.5036770
335,933,Third @ Adams,42.4472960,-76.5057980
336,934,Third @ Adams,42.4473950,-76.5059810
337,998,Tcat Garage,42.4523540,-76.5054470
338,1143,Stewart Park,42.4627110,-76.5008090
339,5545,Regency @ Snyder Hill,42.4261280,-76.4552760
340,5546,Snyder Hill @ Regency,42.4262770,-76.4553530
341,3588,The Shops At Ithaca Mall,42.4826200,-76.4899140
342,3523,Sheraton @ Triphammer,42.4781610,-76.4813160
343,3524,Sheraton @ Clarion,42.4782410,-76.4814070
344,1716,Schwartz Performing Arts Center,42.4425580,-76.4853360
346,3911,Salem @ Birchwood,42.4712750,-76.4570080
347,2577,Rte 96 @ Perry City,42.4957310,-76.5957340
348,2578,Rte 96 @ Perry City,42.4959110,-76.5964280
349,5745,Rte 79 @ Thomas,42.3944170,-76.3750690
350,5746,Rte 79 @ Lounsberry,42.3943560,-76.3753200
351,5743,Rte 79 @ Snyder Hill,42.3954620,-76.3820340
352,5744,Rte 79 @ Snyder Hill,42.3953740,-76.3823850
353,5742,Rte 79 @ Landon,42.3954660,-76.3980330
354,5741,Rte 79 @ Landon,42.3954960,-76.3978350
355,6370,Hillside View Trailer Park,42.3279000,-76.4409410
356,6364,Rte 96b @ Steam Mill,42.3434560,-76.4667660
357,6363,Rte 96b @ Steam Mill,42.3433760,-76.4663310
358,6358,Rte 96b @ Michigan Hollow,42.3499030,-76.4792020
359,6357,Rte 96b @ Michigan Hollow,42.3498460,-76.4788360
360,6354,Rte 96b @ Bald Hill,42.3525050,-76.4809650
361,6353,Rte 96b @ Bald Hill,42.3523750,-76.4807210
362,6350,Danby Fire Station,42.3582880,-76.4833680
363,6349,Rte 96b @ Gunderman,42.3582380,-76.4831310
364,6344,Rte 96b @ Miller,42.3676260,-76.4870910
365,6343,Rte 96b @ Miller,42.3677250,-76.4868620
366,6338,Rte 96b @ Muzzy,42.3809780,-76.4914630
367,6337,Rte 96b @ Muzzy,42.3808210,-76.4911650
368,6330,Rte 96b @ Comfort,42.3945470,-76.4978330
369,6329,Rte 96b @ Comfort,42.3943900,-76.4975130
370,6322,Rte 96b @ King,42.4080660,-76.5031890
371,6321,Rte 96b @ King,42.4072230,-76.5029450
372,365,Longview,42.4157260,-76.5039060
373,340,Ithaca College - Roy Park School,42.4243510,-76.4954220
374,339,Ithaca College - Roy Park School,42.4242740,-76.4954380
375,361,South Hill Business Park,42.4235570,-76.5019760
376,172,Aurora @ Commons,42.4392360,-76.4955520
377,342,Grant Egbert @ Alumni,42.4218030,-76.4996570
378,343,Grant Egbert @ Alumni,42.4217300,-76.4994050
379,347,Tower @ Gym Rd,42.4195860,-76.4990230
380,348,Tower @ Gym Rd,42.4196620,-76.4990310
381,349,The Towers @ Ithaca College,42.4203380,-76.4944150
382,338,Garden Apts,42.4251820,-76.4919200
383,337,Garden Apts,42.4250530,-76.4920810
384,330,Ithaca College East Entrance,42.4268190,-76.4889370
385,329,Ithaca College East Entrance,42.4268230,-76.4888380
386,324,Hudson @ Grandview,42.4310040,-76.4924240
387,323,Hudson @ Pearsall,42.4314500,-76.4920880
388,328,Hudson @ Coddington,42.4293480,-76.4914630
389,327,Coddington @ Hudson,42.4290770,-76.4910890
390,313,Hudson @ Columbia,42.4359360,-76.4923780
391,314,Hudson @ Columbia,42.4357910,-76.4922560
392,504,Clinton @ Fayette,42.4367980,-76.5024490
393,503,Clinton @ Fayette,42.4367220,-76.5026700
394,134,Mcgraw House,42.4377330,-76.5007100
395,133,Mcgraw House,42.4377330,-76.5005950
398,541,Wegmans,42.4349440,-76.5096130
399,531,Meadow @ Wood,42.4325330,-76.5079420
400,543,Tops Supermarket (ithaca),42.4316640,-76.5097810
401,549,Walmart,42.4288440,-76.5133290
402,528,Elmira @ Reuse Center,42.4299810,-76.5048140
403,527,Elmira @ Pudgies,42.4299010,-76.5046840
404,524,Plain @ Wood,42.4328190,-76.5036470
405,523,Plain @ Wood,42.4326820,-76.5035400
406,519,Plain @ Center,42.4354440,-76.5036850
407,520,Plain @ Center,42.4356120,-76.5037770
408,525,Titus Towers,42.4317890,-76.5045090
409,529,Ithaca Plaza,42.4296720,-76.5075380
410,568,Elmira @ Speedway Gas Station,42.4228780,-76.5162050
411,567,Elmira @ Old Mexico Restaurant,42.4230420,-76.5157010
412,569,Elmira @ Spencer,42.4200020,-76.5194470
413,570,Elmira @ Home Depot/kohls,42.4197390,-76.5200270
414,5771,Caroline Turn-Around,42.3775630,-76.2809070
415,5760,Caroline Town Hall,42.3938980,-76.3497160
416,5759,Caroline Town Hall,42.3939860,-76.3497090
417,5748,Rte 79 @ Ellis Hollow,42.3935970,-76.3674240
418,5747,Ellis Hollow @ Rte 79,42.3938260,-76.3672710
419,5749,Rte 79 @ Ellis Hollow,42.3936920,-76.3669820
420,5754,Boiceville @ Rte 79,42.3936880,-76.3628010
421,5753,Rte 79 @ Boiceville,42.3938410,-76.3626940
422,5792,Valley @ Boiceville,42.3858260,-76.3603130
423,5794,Boiceville @ Valley,42.3859600,-76.3601300
424,5786,Brooktondale Store,42.3814890,-76.3968050
425,5785,Brooktondale Store,42.3815540,-76.3967440
426,5788,Brooktondale Park & Ride Outbound,42.3809240,-76.3934860
427,5787,Brooktondale Park & Ride Inbound,42.3810040,-76.3933720
428,3512,Triphammer @ Hanshaw,42.4698140,-76.4806440
429,1355,Jessup @ Triphammer,42.4563670,-76.4808200
430,1357,Triphammer @ Jessup,42.4562150,-76.4812160
431,3525,Triphammer Mall @ Lansing West,42.4790570,-76.4826130
432,1373,Triphammer @ Northway,42.4663390,-76.4841160
433,1372,Triphammer @ Northway,42.4665530,-76.4842070
434,1361,Triphammer @ Oak Hill,42.4584080,-76.4820860
435,1360,Triphammer @ Oak Hill,42.4583890,-76.4822240
436,3315,Triphammer @ Rte 34b,42.5383220,-76.4925610
437,3316,Triphammer @ Rte 34b,42.5385130,-76.4926910
438,3521,Triphammer Across From Kendall,42.4766270,-76.4817500
439,3522,Triphammer @ Kendall,42.4766580,-76.4819790
440,3526,Triphammer @ Triphammer Mall,42.4787140,-76.4822160
441,1111,University @ Cornell Ave,42.4471320,-76.4930270
442,1113,University @ Lake,42.4495510,-76.4920810
443,3558,University Park Apts,42.4805490,-76.4728850
444,3557,University Park Apts,42.4807400,-76.4728010
445,3549,Cinema @ Uptown,42.4809760,-76.4784390
446,3550,Uptown @ Cinema,42.4811060,-76.4783330
447,3559,Uptown @ Warrenwood Apts,42.4785230,-76.4689560
448,3560,Uptown @ Warrenwood Apts,42.4785840,-76.4688260
449,3554,Uptown Village Apts,42.4784930,-76.4726720
450,3553,Uptown Village Apts,42.4784740,-76.4725340
451,1556,Vet Medical Center,42.4463730,-76.4648670
452,1557,Vet Medical Center,42.4463010,-76.4648210
454,3306,Asbury @ Warren,42.5247230,-76.4728470
455,3305,Warren @ Asbury,42.5246660,-76.4726100
456,3748,Warren @ Bomax,42.4901770,-76.4677960
457,3749,Warren @ Tompkins County Jail,42.4930110,-76.4677580
458,3750,Warren @ Borgwarner,42.4933400,-76.4679640
459,3751,Warren @ Dutch Mill,42.5076180,-76.4716800
460,3752,Warren @ Dutch Mill,42.5078930,-76.4718250
461,3759,Warren @ Farrell,42.5144650,-76.4720690
462,3760,Warren @ Farrell,42.5147250,-76.4722060
463,3901,Hanshaw @ Warren,42.4670750,-76.4662780
464,3902,Hanshaw @ Warren,42.4671360,-76.4658360
465,3900,Warren @ Hanshaw,42.4671710,-76.4660420
466,3743,Warren @ Northwoods,42.4860230,-76.4673310
467,3744,Warren @ Northwoods,42.4862980,-76.4675370
468,3747,Warren @ Post Office,42.4899560,-76.4675600
469,3755,Warren @ Village Circle,42.5113220,-76.4719090
470,3756,Warren @ Village Circle,42.5114670,-76.4720610
471,3727,Warren @ Warrenwood Apts,42.4776610,-76.4668880
472,3728,Warren @ Warrenwood Apts,42.4770550,-76.4670260
473,3917,Winston @ Rose Hill,42.4740490,-76.4582600
474,3915,Winston Court,42.4755670,-76.4573820
477,3584,Ymca,42.4859700,-76.4888310
478,3516,Triphammer @ Spruce,42.4725460,-76.4814380
479,3515,Triphammer @ Texas,42.4726560,-76.4813230
480,1317,Highland @ Lakeland,42.4584080,-76.4863820
481,1316,Highland @ Lakeland,42.4584500,-76.4865190
482,2542,Overlook Apts,42.4657750,-76.5407180
483,2309,Rt 79 @ Ecovillage,42.4481810,-76.5401080
484,373,College Circle Apts,42.4115720,-76.5005190
485,372,College Circle North Entrance,42.4130740,-76.5005340
486,371,College Circle North Entrance,42.4131660,-76.5006710
490,5541,Snyder Hill Across From Sugarbush,42.4293710,-76.4596710
491,5542,Snyder Hill @ Sugarbush,42.4293250,-76.4593960
492,5549,Snyder Hill @ Dove,42.4239120,-76.4510500
493,2339,Enfield Highway Department,42.4160690,-76.6277010
494,376,College Circle @ Unnamed Road,42.4125630,-76.4991910
495,341,Ithaca College - Main Entrance,42.4214060,-76.4999770
497,561,Rt 13 @ Old Elmira Rd,42.4281350,-76.5081860
498,920,Lincoln @ Dey,42.4512290,-76.5028230
499,916,Lincoln @ Auburn,42.4518810,-76.5009310
500,907,Cayuga @ Tompkins,42.4482730,-76.4994280
501,900,Cayuga @ Cascadilla,42.4448010,-76.4993060
502,913,Lincoln @ Cayuga,42.4519420,-76.4998930
503,918,Lincoln @ Dey,42.4511870,-76.5030750
504,732,Rt 79 @ Conifer Dr,42.4485130,-76.5305020
505,2310,Rt 79 @ Ecovillage,42.4482650,-76.5402220
506,2330,Enfield Main Rd @ Enfield Elementary,42.4496880,-76.6311040
507,2329,Enfield Main Rd @ Enfield Elementary,42.4496960,-76.6310040
508,2333,Enfield Center - Park And Ride,42.4381980,-76.6308210
509,2338,Enfield Main Rd @ Bostwick,42.4215350,-76.6295170
510,2337,Enfield Main Rd @ Bostwick,42.4213870,-76.6294020
511,676,Buffalo @ Taughannock,42.4409520,-76.5132900
512,779,Cliff @ Vineager Hill,42.4497380,-76.5177230
513,780,Cliff @ Vinegar Hill,42.4498290,-76.5178830
514,2641,Juniper Manor,42.5404010,-76.6638640
515,2550,Rte 96 @ Cayuga Medical,42.4666140,-76.5397490
516,1311,Highland @ Thurston,42.4539260,-76.4864650
525,1137,E Shore Dr @ James L. Gibbs,42.4638480,-76.4988630
526,1138,E Shore Dr @ James L. Gibbs,42.4640160,-76.4991680
527,1120,Gun Hill Apartments Across Street,42.4510840,-76.4936450
528,1119,Gun Hill Apartments,42.4509890,-76.4936750
529,3187,Ludlowville,42.5530660,-76.5373990
530,3188,Ludlowville,42.5530930,-76.5374680
531,3157,Rte 34b @ Myers Point,42.5422780,-76.5368040
532,3158,Rt 34 @ Myers Point,42.5421750,-76.5368190
533,3310,Asbury @ Armstrong,42.5269510,-76.4838100
534,3312,Asbury @ Triphammer,42.5267330,-76.4916990
535,3321,Rte 34 @ Buck,42.5566600,-76.4938660
536,3331,Rt 34 @ N Lansing School,42.6025890,-76.4967040
537,3332,Rte 34 @ Storm,42.6028900,-76.4968340
538,3326,Rt 34e @ Searles,42.5676460,-76.4930040
539,3322,Rte 34 @ Buck,42.5568620,-76.4939800
540,3314,Triphammer @ Asbury,42.5267940,-76.4919590
541,3309,Asbury @ Armstrong,42.5268670,-76.4841160
542,4517,Dryden @ Pineridge,42.4592780,-76.4301990
544,4511,Varna Auto,42.4541970,-76.4406510
545,4512,Varna,42.4542920,-76.4406740
546,4537,Rt 366 @ Rt 13,42.4769290,-76.3870470
547,4518,Dryden @ Pineridge,42.4593510,-76.4302440
548,3931,Hanshaw @ Sapsucker Woods,42.4674800,-76.4502330
549,4776,Freeville Rd @ Dryden Central School,42.4985050,-76.3093190
550,4775,Freeville Rd @ Poets Landing,42.4983980,-76.3093870
551,4735,Keith @ Lake,42.4700050,-76.2835080
552,4751,North @ Lee,42.4979820,-76.2979890
553,4315,Railroad@ Cook,42.5124440,-76.3427660
554,4752,North @ Freeville,42.4984050,-76.2982180
555,4316,Railroad @ Cook,42.5124050,-76.3430480
556,5532,Pine Tree @ Honness,42.4298400,-76.4625630
557,5795,Boiceville Rd @ Boiceville Cottages,42.3881840,-76.3617780
558,5796,Boiceville Rd @ Boiceville Cottages,42.3882370,-76.3618930
559,5779,Brooktondale @ Besemer,42.3886410,-76.4081120
560,5780,Brooktondale @ Besemer,42.3886950,-76.4085850
561,5752,Rt 79 @ Boiceville,42.3937530,-76.3629910
562,5708,Rte 79 @ Honness,42.4293670,-76.4722440
563,5707,Rte 79 @ Honness,42.4292720,-76.4719770
564,5715,Rt 79 @ Lois Ln (commonland),42.4242480,-76.4641650
565,5322,Ellis Hollow @ Genung,42.4281010,-76.4150620
566,5342,Ellis Hollow @ Hunt Hill,42.4224050,-76.3768080
567,5338,Ellis Hollow @ Eagleshead,42.4237520,-76.3782270
568,5332,Ellis Hollow @ Ellis Hollow Creek,42.4252430,-76.3813320
569,5318,Ellis Hollow @ Turkey Hill,42.4307860,-76.4280010
570,5311,Turkey Hill @ Ellis Hollow Creek,42.4423870,-76.4287640
571,4524,Turkey Hill @ Mt. Pleasant,42.4531140,-76.4292830
572,4520,Turkey Hill @ Varna Fire Station,42.4589690,-76.4275890
573,4523,Turkey Hill @ Mt. Pleasant,42.4532470,-76.4292370
574,5312,Turkey Hill @ Ellis Hollow Creek,42.4425740,-76.4289170
575,5316,Turkey Hill @ Ellis Hollow,42.4308740,-76.4281850
576,5331,Ellis Hollow @ Ellis Hollow Creek,42.4253160,-76.3816760
577,5337,Ellis Hollow @ Eagleshead,42.4237560,-76.3784710
578,5341,Ellis Hollow @ Hunt Hill,42.4225540,-76.3771060
579,171,Aurora @ Commons,42.4392740,-76.4953990
580,512,Clinton @ Corn,42.4366870,-76.5058820
581,532,Meadow @ Wood,42.4323200,-76.5081330
582,562,Meadow @ Elmira,42.4286190,-76.5081630
583,565,Elmira @ Dennys,42.4261250,-76.5115510
585,511,Clinton West Plaza,42.4366040,-76.5063480
586,3739,Dart @ Warren,42.4833680,-76.4679030
587,3949,Hanshaw Village,42.4830470,-76.4311450
588,3945,Hanshaw @ Royal (gutherie Medical),42.4760930,-76.4306950
589,3946,Hanshaw @ Royal (gutherie Medical),42.4762190,-76.4308010
590,4563,Etna @ Pinckney,42.4871440,-76.4095230
591,4550,Lower Creek @ Pinckney,42.4771190,-76.4060970
592,4553,Creekwood Apartments,42.4795680,-76.3997120
593,4554,Creekwood Apartments,42.4795950,-76.3997650
594,3950,Hanshaw Village,42.4831200,-76.4312290
595,3932,Sapsucker Woods @ Hanshaw,42.4675410,-76.4499590
596,3906,Hanshaw @ Salem,42.4673390,-76.4585040
604,1507,Stewart @ University,42.4491200,-76.4903110
606,563,Spencer Rd @ S Meadow,42.4264300,-76.5077360
607,1715,Collegetown Crossing,42.4406390,-76.4851530
614,4383,Conger @ Cortland,42.5909460,-76.3692630
616,315,417 Hillview Pl,42.4348910,-76.4933550
617,351,Ithaca College -Terrace Apartments,42.4196090,-76.4965900
618,352,Ithaca College -Terrace Apartment,42.4196820,-76.4965900
619,318,Hudson @ South Hill School,42.4337230,-76.4917370
620,317,Hudson @ South Hill School,42.4337040,-76.4916310
621,3783,Brown @ Culligan,42.4874880,-76.4621810
622,4378,Main @ Groton Park N Ride,42.5900460,-76.3677520
623,3519,Triphammer @ Winthrop,42.4752040,-76.4816280
624,3520,Triphammer @ Winthrop,42.4752160,-76.4818570
625,1376,The Parkway @ Upland,42.4637990,-76.4866870
626,1375,The Parkway @ Upland,42.4636270,-76.4865420
627,3919,Rose Hill @ Tareyton,42.4740070,-76.4598080
628,1722,Stewart @ Seneca,42.4407580,-76.4897990
630,3936,Lab Of Ornithology,42.4793360,-76.4505160
635,997,Tcat Offices,42.4532050,-76.5060730
1157,547,Fairgrounds Memorial Parkway @ Lowes,42.4299660,-76.5119550
1158,736,Linderman Creek Apts.,42.4494290,-76.5305400
1159,127,State @ Plain,42.4393460,-76.5041350
1160,3788,Tompkins County Health Department,42.4860840,-76.4623640
1161,128,State @ Plain,42.4394340,-76.5037610
1162,719,Haller @ Hook,42.4393040,-76.5260930
1163,720,Hook @ Haller,42.4394800,-76.5260620
1164,175,Buffalo @ Fulton,42.4408530,-76.5109560
1165,715,West Village,42.4354360,-76.5230330
1166,5321,Ellis Hollow @ Genung,42.4280820,-76.4152830
1167,4519,Turkey Hill @ Dryden,42.4602580,-76.4273610
1168,5560,Eastern Heights @ Landmark,42.4243700,-76.4545440
1169,3139,Rt 34 @ Auburn Rd,42.5375140,-76.5061570
1170,3140,Rt 34 @ Rt 34b,42.5374910,-76.5061800
1173,5548,Snyder Hill @ Hungerford Hill,42.4250910,-76.4537890
1174,6784,Newfield-Central School/garden Apts.,42.3592720,-76.5971980
